{"type": "FeatureCollection", "features": [{"type":"Feature","geometry":{"type":"Point","coordinates":[-111.906593,40.754478]},"properties":{"image":"http://pu.bli.sh/maps/images_popups/49133_ES_13840.png","type":"B","label":"Salt Lake Valley Storefront","address":"550 W. 700 South","state":"UT","zip":"84101","phone":"801-537-7537","website":"","hours_monday":"7am-5pm","hours_tuesday":"7am-5pm","hours_wednesday":"7am-5pm","hours_thursday":"7am-5pm","hours_friday":"7am-5pm","hours_saturday":"Closed","hours_sunday":"Closed","available_clothing":"","available_computer_access":"","available_day_room":"","available_dental_services":"","available_food_pantry":"","available_housing_assistance":"","available_meals":"","available_medical_services":"","available_personal_care_items":"","available_showers":"","available_shelter":"","available_transportation_assistance":"","cartodb_id":13,"created_at":"2014-04-10T22:54:26Z","updated_at":"2014-04-10T22:54:26Z"}},{"type":"Feature","geometry":{"type":"Point","coordinates":[-111.91983,40.790749]},"properties":{"image":"","type":"F","label":"Loving Hands Organization","address":"999 West 1000 North","state":"UT","zip":"84116","phone":"801-651-9131","website":"","hours_monday":"","hours_tuesday":"","hours_wednesday":"","hours_thursday":"","hours_friday":"","hours_saturday":"","hours_sunday":"","available_clothing":"","available_computer_access":"","available_day_room":"","available_dental_services":"Dental Services","available_food_pantry":"","available_housing_assistance":"","available_meals":"","available_medical_services":"","available_personal_care_items":"","available_showers":"","available_shelter":"","available_transportation_assistance":"","cartodb_id":42,"created_at":"2014-04-10T22:54:26Z","updated_at":"2014-04-10T22:54:26Z"}},{"type":"Feature","geometry":{"type":"Point","coordinates":[-111.903892,40.764049]},"properties":{"image":"http://pu.bli.sh/maps/images_popups/43966_ES_121234.png","type":"B","label":"Bishop Weigand Homeless Day Center","address":"235 South Rio Grande Street","state":"UT","zip":"84101","phone":"801-363-7710","website":"","hours_monday":"7am-3pm","hours_tuesday":"7am-3pm","hours_wednesday":"7am-3pm","hours_thursday":"7am-3pm","hours_friday":"7am-3pm","hours_saturday":"Closed","hours_sunday":"Closed","available_clothing":"Clothing","available_computer_access":"","available_day_room":"Day Room","available_dental_services":"","available_food_pantry":"","available_housing_assistance":"","available_meals":"","available_medical_services":"","available_personal_care_items":"","available_showers":"Showers","available_shelter":"","available_transportation_assistance":"","cartodb_id":1,"created_at":"2014-04-10T22:54:26Z","updated_at":"2014-04-10T22:54:26Z"}},{"type":"Feature","geometry":{"type":"Point","coordinates":[-111.899795,40.741711]},"properties":{"image":"http://pu.bli.sh/maps/images_popups/45245_ES_123356.png","type":"B","label":"Community Action Program","address":"1300 W 300 N","state":"UT","zip":"84101","phone":"801-359-8741","website":"slcap.org","hours_monday":"8:30am-5pm","hours_tuesday":"8:30am-5pm","hours_wednesday":"8:30am-5pm","hours_thursday":"8:30am-5pm","hours_friday":"8:30am-5pm","hours_saturday":"Closed","hours_sunday":"Closed","available_clothing":"","available_computer_access":"","available_day_room":"","available_dental_services":"","available_food_pantry":"Food / Pantry","available_housing_assistance":"Housing Assistance","available_meals":"","available_medical_services":"","available_personal_care_items":"","available_showers":"","available_shelter":"","available_transportation_assistance":"","cartodb_id":2,"created_at":"2014-04-10T22:54:26Z","updated_at":"2014-04-10T22:54:26Z"}},{"type":"Feature","geometry":{"type":"Point","coordinates":[-111.936348,40.790482]},"properties":{"image":"http://pu.bli.sh/maps/images_popups/45720_ES_124150.png","type":"B","label":"Day-Riverside Library","address":"1575 W 1000 N","state":"UT","zip":"84116","phone":"801-594-8632","website":"slcpl.lib.ut.us","hours_monday":"10am-9pm","hours_tuesday":"10am-9pm","hours_wednesday":"10am-9pm","hours_thursday":"10am-9pm","hours_friday":"10am-6pm","hours_saturday":"10am-6pm","hours_sunday":"1pm-5pm","available_clothing":"","available_computer_access":"Computer Access","available_day_room":"Day Room","available_dental_services":"","available_food_pantry":"","available_housing_assistance":"","available_meals":"","available_medical_services":"","available_personal_care_items":"","available_showers":"","available_shelter":"","available_transportation_assistance":"","cartodb_id":3,"created_at":"2014-04-10T22:54:26Z","updated_at":"2014-04-10T22:54:26Z"}},{"type":"Feature","geometry":{"type":"Point","coordinates":[-111.833557,40.750633]},"properties":{"image":"http://pu.bli.sh/maps/images_popups/45966_ES_124553.png","type":"B","label":"Family Support Center","address":"2020 South 740 East","state":"UT","zip":"84105","phone":"801-487-777?","website":"familysupportcenter.org","hours_monday":"8am-5pm","hours_tuesday":"8am-5pm","hours_wednesday":"8am-5pm","hours_thursday":"8am-5pm","hours_friday":"8am-5pm","hours_saturday":"Closed","hours_sunday":"Closed","available_clothing":"","available_computer_access":"","available_day_room":"","available_dental_services":"","available_food_pantry":"","available_housing_assistance":"","available_meals":"","available_medical_services":"","available_personal_care_items":"","available_showers":"","available_shelter":"","available_transportation_assistance":"","cartodb_id":4,"created_at":"2014-04-10T22:54:26Z","updated_at":"2014-04-10T22:54:26Z"}},{"type":"Feature","geometry":{"type":"Point","coordinates":[-111.912811,40.753559]},"properties":{"image":"http://pu.bli.sh/maps/images_popups/47438_ES_11026.png","type":"B","label":"LDS Welfare Square","address":"751 W. 700 South","state":"UT","zip":"84104","phone":"801-240-7332","website":"","hours_monday":"Call","hours_tuesday":"Call","hours_wednesday":"Call","hours_thursday":"Call","hours_friday":"Call","hours_saturday":"Call","hours_sunday":"Call","available_clothing":"Clothing","available_computer_access":"","available_day_room":"","available_dental_services":"","available_food_pantry":"Food / Pantry","available_housing_assistance":"","available_meals":"","available_medical_services":"","available_personal_care_items":"Personal Care Items","available_showers":"","available_shelter":"","available_transportation_assistance":"Transportation Assistance","cartodb_id":5,"created_at":"2014-04-10T22:54:26Z","updated_at":"2014-04-10T22:54:26Z"}},{"type":"Feature","geometry":{"type":"Point","coordinates":[-111.878258,40.715488]},"properties":{"image":"http://pu.bli.sh/maps/images_popups/48036_ES_12028.png","type":"B","label":"S.L  County-Columbus Branch","address":"2530 S 500 E","state":"UT","zip":"84106","phone":"801-944-7625","website":"slco.lib.ut.us","hours_monday":"10am-9pm","hours_tuesday":"10am-9pm","hours_wednesday":"10am-9pm","hours_thursday":"10am-9pm","hours_friday":"10am-6pm","hours_saturday":"10am-6pm","hours_sunday":"Closed","available_clothing":"","available_computer_access":"Computer Access","available_day_room":"Day Room","available_dental_services":"","available_food_pantry":"","available_housing_assistance":"","available_meals":"","available_medical_services":"","available_personal_care_items":"","available_showers":"","available_shelter":"","available_transportation_assistance":"","cartodb_id":6,"created_at":"2014-04-10T22:54:26Z","updated_at":"2014-04-10T22:54:26Z"}},{"type":"Feature","geometry":{"type":"Point","coordinates":[-111.868011,40.69973]},"properties":{"image":"http://pu.bli.sh/maps/images_popups/48129_ES_12158.png","type":"B","label":"S.L. County-C. Smith Branch","address":"810 E 3300 S","state":"UT","zip":"84106","phone":"801-944-7630","website":"slco.lib.ut.us","hours_monday":"10am-9pm","hours_tuesday":"10am-9pm","hours_wednesday":"10am-9pm","hours_thursday":"10am-9pm","hours_friday":"10am-6pm","hours_saturday":"10am-6pm","hours_sunday":"Closed","available_clothing":"","available_computer_access":"Computer Access","available_day_room":"Day Room","available_dental_services":"","available_food_pantry":"","available_housing_assistance":"","available_meals":"","available_medical_services":"","available_personal_care_items":"","available_showers":"","available_shelter":"","available_transportation_assistance":"","cartodb_id":7,"created_at":"2014-04-10T22:54:26Z","updated_at":"2014-04-10T22:54:26Z"}},{"type":"Feature","geometry":{"type":"Point","coordinates":[-111.883919,40.75956]},"properties":{"image":"http://pu.bli.sh/maps/images_popups/48581_ES_12922.png","type":"B","label":"Salt Lake City Public Library","address":"210 E 400 S","state":"UT","zip":"84111","phone":"801-524-8200","website":"slcpl.lib.ut.us","hours_monday":"9am-9pm","hours_tuesday":"9am-9pm","hours_wednesday":"9am-9pm","hours_thursday":"9am-9pm","hours_friday":"9am-6pm","hours_saturday":"9am-6pm","hours_sunday":"1pm-5pm","available_clothing":"","available_computer_access":"Computer Access","available_day_room":"Day Room","available_dental_services":"","available_food_pantry":"","available_housing_assistance":"","available_meals":"","available_medical_services":"","available_personal_care_items":"","available_showers":"","available_shelter":"","available_transportation_assistance":"","cartodb_id":9,"created_at":"2014-04-10T22:54:26Z","updated_at":"2014-04-10T22:54:26Z"}},{"type":"Feature","geometry":{"type":"Point","coordinates":[-111.830223,40.744362]},"properties":{"image":"http://pu.bli.sh/maps/images_popups/48697_ES_13127.png","type":"B","label":"Salt Lake City-Anderson Branch","address":"1135 S 2100 E","state":"UT","zip":"84108","phone":"801-594-8611","website":"slcpl.lib.ut.us","hours_monday":"10am-9pm","hours_tuesday":"10am-9pm","hours_wednesday":"10am-9pm","hours_thursday":"10am-9pm","hours_friday":"10am-6pm","hours_saturday":"10am-6pm","hours_sunday":"Closed","available_clothing":"","available_computer_access":"Computer Access","available_day_room":"Day Room","available_dental_services":"","available_food_pantry":"","available_housing_assistance":"","available_meals":"","available_medical_services":"","available_personal_care_items":"","available_showers":"","available_shelter":"","available_transportation_assistance":"","cartodb_id":10,"created_at":"2014-04-10T22:54:26Z","updated_at":"2014-04-10T22:54:26Z"}},{"type":"Feature","geometry":{"type":"Point","coordinates":[-111.916519,40.756619]},"properties":{"image":"http://pu.bli.sh/maps/images_popups/48810_ES_13318.png","type":"B","label":"Salt Lake City-Chapman Branch","address":"577 S 900 W","state":"UT","zip":"84104","phone":"801-594-8623","website":"slcpl.lib.ut.us","hours_monday":"10am-9pm","hours_tuesday":"10am-9pm","hours_wednesday":"10am-9pm","hours_thursday":"10am-9pm","hours_friday":"10am-6pm","hours_saturday":"10am-6pm","hours_sunday":"Closed","available_clothing":"","available_computer_access":"Computer Access","available_day_room":"Day Room","available_dental_services":"","available_food_pantry":"","available_housing_assistance":"","available_meals":"","available_medical_services":"","available_personal_care_items":"","available_showers":"","available_shelter":"","available_transportation_assistance":"","cartodb_id":11,"created_at":"2014-04-10T22:54:26Z","updated_at":"2014-04-10T22:54:26Z"}},{"type":"Feature","geometry":{"type":"Point","coordinates":[-111.876183,40.779995]},"properties":{"image":"http://pu.bli.sh/maps/images_popups/48867_ES_13415.png","type":"B","label":"Salt Lake City-Sweet Branch","address":"455 \"F\" St","state":"UT","zip":"84103","phone":"801-594-8651","website":"slcpl.lib.ut.us","hours_monday":"10am-9pm","hours_tuesday":"10am-9pm","hours_wednesday":"10am-9pm","hours_thursday":"10am-9pm","hours_friday":"10am-6pm","hours_saturday":"10am-6pm","hours_sunday":"Closed","available_clothing":"","available_computer_access":"Computer Access","available_day_room":"Day Room","available_dental_services":"","available_food_pantry":"","available_housing_assistance":"","available_meals":"","available_medical_services":"","available_personal_care_items":"","available_showers":"","available_shelter":"","available_transportation_assistance":"","cartodb_id":12,"created_at":"2014-04-10T22:54:26Z","updated_at":"2014-04-10T22:54:26Z"}},{"type":"Feature","geometry":{"type":"Point","coordinates":[-111.859497,40.72533]},"properties":{"image":"http://pu.bli.sh/maps/images_popups/49241_ES_14027.png","type":"B","label":"Sprague Library","address":"2131 S 1100 E","state":"UT","zip":"84106","phone":"801-594-8640","website":"slcpl.lib.ut.us","hours_monday":"10am-9pm","hours_tuesday":"10am-9pm","hours_wednesday":"10am-9pm","hours_thursday":"10am-9pm","hours_friday":"10am-6pm","hours_saturday":"10am-6pm","hours_sunday":"1pm-5pm","available_clothing":"","available_computer_access":"Computer Access","available_day_room":"Day Room","available_dental_services":"","available_food_pantry":"","available_housing_assistance":"","available_meals":"","available_medical_services":"","available_personal_care_items":"","available_showers":"","available_shelter":"","available_transportation_assistance":"","cartodb_id":14,"created_at":"2014-04-10T22:54:26Z","updated_at":"2014-04-10T22:54:26Z"}},{"type":"Feature","geometry":{"type":"Point","coordinates":[-111.979454,41.2174]},"properties":{"image":"http://pu.bli.sh/maps/images_popups/49295_ES_14121.png","type":"B","label":"St Anne's Center","address":"137 West Binford","state":"UT","zip":"84401","phone":"801-621-5036","website":"stannescenter.org","hours_monday":"9am-4pm","hours_tuesday":"9am-4pm","hours_wednesday":"9am-4pm","hours_thursday":"9am-4pm","hours_friday":"9am-4pm","hours_saturday":"12-1pm","hours_sunday":"12-1pm","available_clothing":"Clothing","available_computer_access":"Computer Access","available_day_room":"","available_dental_services":"","available_food_pantry":"Food / Pantry","available_housing_assistance":"Housing Assistance","available_meals":"Meals","available_medical_services":"","available_personal_care_items":"Personal Care Items","available_showers":"","available_shelter":"Shelter","available_transportation_assistance":"","cartodb_id":15,"created_at":"2014-04-10T22:54:26Z","updated_at":"2014-04-10T22:54:26Z"}},{"type":"Feature","geometry":{"type":"Point","coordinates":[-111.892151,40.742512]},"properties":{"image":"http://pu.bli.sh/maps/images_popups/Services_LovingHands.jpg","type":"B","label":"Horizonte Instruction & Training","address":"1234 South Main Street","state":"UT","zip":"84101","phone":"801-578-8574","website":"","hours_monday":"","hours_tuesday":"","hours_wednesday":"","hours_thursday":"","hours_friday":"","hours_saturday":"","hours_sunday":"","available_clothing":"","available_computer_access":"","available_day_room":"","available_dental_services":"","available_food_pantry":"","available_housing_assistance":"","available_meals":"","available_medical_services":"","available_personal_care_items":"","available_showers":"","available_shelter":"","available_transportation_assistance":"","cartodb_id":16,"created_at":"2014-04-10T22:54:26Z","updated_at":"2014-04-10T22:54:26Z"}},{"type":"Feature","geometry":{"type":"Point","coordinates":[-111.997108,41.220341]},"properties":{"image":"","type":"B","label":"Catholic Community Services","address":"2504 F Ave. Ogden","state":"UT","zip":"84401","phone":"801-394-5944","website":"ccsutah.org","hours_monday":"","hours_tuesday":"","hours_wednesday":"","hours_thursday":"","hours_friday":"","hours_saturday":"","hours_sunday":"","available_clothing":"","available_computer_access":"","available_day_room":"","available_dental_services":"Dental Services","available_food_pantry":"","available_housing_assistance":"","available_meals":"","available_medical_services":"","available_personal_care_items":"","available_showers":"","available_shelter":"","available_transportation_assistance":"","cartodb_id":17,"created_at":"2014-04-10T22:54:26Z","updated_at":"2014-04-10T22:54:26Z"}},{"type":"Feature","geometry":{"type":"Point","coordinates":[-111.898521,40.746921]},"properties":{"image":"http://pu.bli.sh/maps/images_popups/Services_VOA.jpg","type":"B","label":"Volunteers of America","address":"252 Brooklyn Ave.","state":"UT","zip":"84101","phone":"801-363-9400","website":"voaut.org","hours_monday":"","hours_tuesday":"","hours_wednesday":"","hours_thursday":"","hours_friday":"","hours_saturday":"","hours_sunday":"","available_clothing":"Clothing","available_computer_access":"","available_day_room":"Day Room","available_dental_services":"","available_food_pantry":"","available_housing_assistance":"Housing Assistance","available_meals":"","available_medical_services":"","available_personal_care_items":"","available_showers":"Showers","available_shelter":"Shelter","available_transportation_assistance":"","cartodb_id":20,"created_at":"2014-04-10T22:54:26Z","updated_at":"2014-04-10T22:54:26Z"}},{"type":"Feature","geometry":{"type":"Point","coordinates":[-111.853142,40.703339]},"properties":{"image":"http://pu.bli.sh/maps/images_popups/Services_YMCA.jpg","type":"B","label":"YMCA","address":"3098 Highland Dr.","state":"UT","zip":"84106","phone":"801-466-6299","website":"","hours_monday":"","hours_tuesday":"","hours_wednesday":"","hours_thursday":"","hours_friday":"","hours_saturday":"","hours_sunday":"","available_clothing":"","available_computer_access":"","available_day_room":"","available_dental_services":"","available_food_pantry":"","available_housing_assistance":"","available_meals":"","available_medical_services":"","available_personal_care_items":"","available_showers":"","available_shelter":"","available_transportation_assistance":"","cartodb_id":21,"created_at":"2014-04-10T22:54:26Z","updated_at":"2014-04-10T22:54:26Z"}},{"type":"Feature","geometry":{"type":"Point","coordinates":[-111.902657,40.77383]},"properties":{"image":"http://pu.bli.sh/maps/images_popups/Services_LegalAid.jpg","type":"B","label":"Legal Aid Society","address":"205 North 4th West","state":"UT","zip":"84103","phone":"801-328-8849","website":"legalaidsocietyofsaltlake.org","hours_monday":"","hours_tuesday":"","hours_wednesday":"","hours_thursday":"","hours_friday":"","hours_saturday":"","hours_sunday":"","available_clothing":"","available_computer_access":"","available_day_room":"","available_dental_services":"","available_food_pantry":"","available_housing_assistance":"","available_meals":"","available_medical_services":"","available_personal_care_items":"","available_showers":"","available_shelter":"","available_transportation_assistance":"","cartodb_id":22,"created_at":"2014-04-10T22:54:26Z","updated_at":"2014-04-11T00:39:34Z"}},{"type":"Feature","geometry":{"type":"Point","coordinates":[-111.881256,40.769474]},"properties":{"image":"http://pu.bli.sh/maps/images_popups/44557_ES_122222.png","type":"F","label":"Cathedral of the Madeline","address":"331 East South Temple","state":"UT","zip":"84111","phone":"801-328-8941","website":"utcotm.org","hours_monday":"9am-8pm","hours_tuesday":"9am-8pm","hours_wednesday":"9am-8pm","hours_thursday":"9am-8pm","hours_friday":"9am-8pm","hours_saturday":"9am-8pm","hours_sunday":"9am-8pm","available_clothing":"","available_computer_access":"","available_day_room":"","available_dental_services":"","available_food_pantry":"","available_housing_assistance":"","available_meals":"Meals","available_medical_services":"","available_personal_care_items":"Personal Care Items","available_showers":"","available_shelter":"","available_transportation_assistance":"","cartodb_id":25,"created_at":"2014-04-10T22:54:26Z","updated_at":"2014-04-10T22:54:26Z"}},{"type":"Feature","geometry":{"type":"Point","coordinates":[-111.871841,40.741489]},"properties":{"image":"http://pu.bli.sh/maps/images_popups/44862_ES_122732.png","type":"F","label":"Church at Liberty Park ","address":"662 East 1300 South","state":"UT","zip":"84105","phone":"801-973-0088","website":"","hours_monday":"Closed","hours_tuesday":"2-4pm","hours_wednesday":"4-6:30pm","hours_thursday":"10am-2pm","hours_friday":"Closed","hours_saturday":"Closed","hours_sunday":"Closed","available_clothing":"","available_computer_access":"","available_day_room":"","available_dental_services":"","available_food_pantry":"Food / Pantry","available_housing_assistance":"","available_meals":"","available_medical_services":"","available_personal_care_items":"","available_showers":"","available_shelter":"","available_transportation_assistance":"","cartodb_id":26,"created_at":"2014-04-10T22:54:26Z","updated_at":"2014-04-10T22:54:26Z"}},{"type":"Feature","geometry":{"type":"Point","coordinates":[-111.891312,40.719189]},"properties":{"image":"http://pu.bli.sh/maps/images_popups/45013_ES_122958.png","type":"F","label":"Church of Philadelphia","address":"2358 South Main Street","state":"UT","zip":"84115","phone":"801-208-9859","website":"","hours_monday":"10am-6pm","hours_tuesday":"Closed","hours_wednesday":"Closed","hours_thursday":"Closed","hours_friday":"10am-6pm","hours_saturday":"Closed","hours_sunday":"Closed","available_clothing":"","available_computer_access":"","available_day_room":"","available_dental_services":"","available_food_pantry":"Food / Pantry","available_housing_assistance":"","available_meals":"Meals","available_medical_services":"","available_personal_care_items":"","available_showers":"","available_shelter":"","available_transportation_assistance":"","cartodb_id":27,"created_at":"2014-04-10T22:54:26Z","updated_at":"2014-04-10T22:54:26Z"}},{"type":"Feature","geometry":{"type":"Point","coordinates":[-111.883431,40.76104]},"properties":{"image":"http://pu.bli.sh/maps/images_popups/Services_Pride.jpg","type":"B","label":"Utah Pride Center","address":"255 E 400 S","state":"UT","zip":"84111","phone":"801-539-8800","website":"","hours_monday":"10am – 9pm","hours_tuesday":"10am – 9pm","hours_wednesday":"10am – 9pm","hours_thursday":"10am – 9pm","hours_friday":"10am – 9pm","hours_saturday":"","hours_sunday":"","available_clothing":"","available_computer_access":"","available_day_room":"","available_dental_services":"","available_food_pantry":"","available_housing_assistance":"","available_meals":"","available_medical_services":"","available_personal_care_items":"","available_showers":"","available_shelter":"","available_transportation_assistance":"","cartodb_id":19,"created_at":"2014-04-10T22:54:26Z","updated_at":"2016-07-15T00:57:30Z"}},{"type":"Feature","geometry":{"type":"Point","coordinates":[-111.891312,40.719189]},"properties":{"image":"http://pu.bli.sh/maps/images_popups/45013_ES_122958.png","type":"F","label":"COP Community Food Pantry","address":"2358 South Main Street","state":"UT","zip":"84115","phone":"801-208-9859","website":"","hours_monday":"Call","hours_tuesday":"Closed","hours_wednesday":"Closed","hours_thursday":"Closed","hours_friday":"Call","hours_saturday":"Closed","hours_sunday":"Closed","available_clothing":"","available_computer_access":"","available_day_room":"","available_dental_services":"","available_food_pantry":"Food / Pantry","available_housing_assistance":"","available_meals":"","available_medical_services":"","available_personal_care_items":"","available_showers":"","available_shelter":"","available_transportation_assistance":"","cartodb_id":28,"created_at":"2014-04-10T22:54:26Z","updated_at":"2014-04-10T22:54:26Z"}},{"type":"Feature","geometry":{"type":"Point","coordinates":[-111.879837,40.761043]},"properties":{"image":"http://pu.bli.sh/maps/images_popups/45608_ES_123955.png","type":"F","label":"Crossroads Urban Center","address":"346 South 400 East","state":"UT","zip":"84111","phone":"801-364-7764","website":"crossroadsuc.org","hours_monday":"9am-5pm","hours_tuesday":"9am-5pm","hours_wednesday":"9am-5pm","hours_thursday":"9am-5pm","hours_friday":"9am-5pm","hours_saturday":"Closed","hours_sunday":"Closed","available_clothing":"Clothing","available_computer_access":"","available_day_room":"","available_dental_services":"","available_food_pantry":"Food / Pantry","available_housing_assistance":"","available_meals":"","available_medical_services":"","available_personal_care_items":"Personal Care Items","available_showers":"","available_shelter":"","available_transportation_assistance":"Transportation Assistance","cartodb_id":29,"created_at":"2014-04-10T22:54:26Z","updated_at":"2014-04-10T22:54:26Z"}},{"type":"Feature","geometry":{"type":"Point","coordinates":[-111.908295,40.758091]},"properties":{"image":"","type":"F","label":"Eagle Ranch","address":"500 S. 600 West","state":"UT","zip":"84101","phone":"801-254-4945","website":"eagleministries.net","hours_monday":"Closed","hours_tuesday":"Closed","hours_wednesday":"Closed","hours_thursday":"Closed","hours_friday":"Closed","hours_saturday":"Closed","hours_sunday":"7am-11am","available_clothing":"","available_computer_access":"","available_day_room":"","available_dental_services":"","available_food_pantry":"","available_housing_assistance":"","available_meals":"Meals","available_medical_services":"","available_personal_care_items":"","available_showers":"","available_shelter":"","available_transportation_assistance":"","cartodb_id":30,"created_at":"2014-04-10T22:54:26Z","updated_at":"2014-04-10T22:54:26Z"}},{"type":"Feature","geometry":{"type":"Point","coordinates":[-111.881256,40.769474]},"properties":{"image":"http://pu.bli.sh/maps/images_popups/46777_ES_125921.png","type":"F","label":"Good Samaritan Program","address":"331 E. South Temple","state":"UT","zip":"84111","phone":"801-328-5633","website":"","hours_monday":"9am-8pm","hours_tuesday":"9am-8pm","hours_wednesday":"9am-8pm","hours_thursday":"9am-8pm","hours_friday":"9am-8pm","hours_saturday":"9am-8pm","hours_sunday":"9am-8pm","available_clothing":"Clothing","available_computer_access":"","available_day_room":"","available_dental_services":"","available_food_pantry":"","available_housing_assistance":"","available_meals":"","available_medical_services":"","available_personal_care_items":"Personal Care Items","available_showers":"","available_shelter":"","available_transportation_assistance":"","cartodb_id":31,"created_at":"2014-04-10T22:54:26Z","updated_at":"2014-04-10T22:54:26Z"}},{"type":"Feature","geometry":{"type":"Point","coordinates":[-111.933273,40.77565]},"properties":{"image":"http://pu.bli.sh/maps/images_popups/46984_ES_10245.png","type":"F","label":"Health Department","address":"288 North 1460 West","state":"UT","zip":"84114","phone":"801-538-6960","website":"","hours_monday":"8am-9am","hours_tuesday":"8am-9am","hours_wednesday":"8am-9am","hours_thursday":"8am-9am","hours_friday":"8am-9am","hours_saturday":"Closed","hours_sunday":"Closed","available_clothing":"","available_computer_access":"","available_day_room":"","available_dental_services":"","available_food_pantry":"","available_housing_assistance":"","available_meals":"","available_medical_services":"Medical Services","available_personal_care_items":"","available_showers":"","available_shelter":"","available_transportation_assistance":"","cartodb_id":32,"created_at":"2014-04-10T22:54:26Z","updated_at":"2014-04-10T22:54:26Z"}},{"type":"Feature","geometry":{"type":"Point","coordinates":[-111.896507,40.75108]},"properties":{"image":"http://pu.bli.sh/maps/images_popups/47166_ES_10556.png","type":"F","label":"House of Prayer","address":"829 South 200 West","state":"UT","zip":"84101","phone":"801-364-2335","website":"","hours_monday":"Closed","hours_tuesday":"Closed","hours_wednesday":"Closed","hours_thursday":"Closed","hours_friday":"9-10pm","hours_saturday":"Closed","hours_sunday":"-","available_clothing":"","available_computer_access":"","available_day_room":"","available_dental_services":"","available_food_pantry":"Food / Pantry","available_housing_assistance":"","available_meals":"","available_medical_services":"","available_personal_care_items":"","available_showers":"","available_shelter":"","available_transportation_assistance":"","cartodb_id":33,"created_at":"2014-04-10T22:54:26Z","updated_at":"2014-04-10T22:54:26Z"}},{"type":"Feature","geometry":{"type":"Point","coordinates":[-111.936417,40.707874]},"properties":{"image":"http://pu.bli.sh/maps/images_popups/47749_ES_11536.png","type":"F","label":"Redwood Community Action Pantry","address":"3060 S Lester (1585 W)","state":"UT","zip":"84119","phone":"801-972-6661","website":"","hours_monday":"8:30-5:00pm","hours_tuesday":"8:30-5:00pm","hours_wednesday":"8:30-5:00pm","hours_thursday":"8:30-5:00pm","hours_friday":"8:30-5:00pm","hours_saturday":"Closed","hours_sunday":"Closed","available_clothing":"","available_computer_access":"","available_day_room":"","available_dental_services":"","available_food_pantry":"Food / Pantry","available_housing_assistance":"","available_meals":"","available_medical_services":"","available_personal_care_items":"","available_showers":"","available_shelter":"","available_transportation_assistance":"","cartodb_id":34,"created_at":"2014-04-10T22:54:26Z","updated_at":"2014-04-10T22:54:26Z"}},{"type":"Feature","geometry":{"type":"Point","coordinates":[-111.928398,40.762951]},"properties":{"image":"http://pu.bli.sh/maps/images_popups/48364_ES_12555_2.png","type":"F","label":"Salt Lake CAP NorthwestWestside Neighborhood Food Pantry","address":"1300 W. 300 N.","state":"UT","zip":"84104","phone":"801-359-8741","website":"slcap.org","hours_monday":"8:30am-5pm","hours_tuesday":"8:30am-5pm","hours_wednesday":"8:30am-5pm","hours_thursday":"8:30am-5pm","hours_friday":"8:30am-5pm","hours_saturday":"Closed","hours_sunday":"Closed","available_clothing":"","available_computer_access":"","available_day_room":"","available_dental_services":"","available_food_pantry":"Food / Pantry","available_housing_assistance":"","available_meals":"","available_medical_services":"","available_personal_care_items":"","available_showers":"","available_shelter":"","available_transportation_assistance":"","cartodb_id":35,"created_at":"2014-04-10T22:54:26Z","updated_at":"2014-04-10T22:54:26Z"}},{"type":"Feature","geometry":{"type":"Point","coordinates":[-111.905678,40.765213]},"properties":{"image":"","type":"F","label":"Salt Lake City Mission","address":"500 W. 200 South","state":"UT","zip":"84101","phone":"801-355-6310","website":"","hours_monday":"8am-9am","hours_tuesday":"8am-9am","hours_wednesday":"8am-9am","hours_thursday":"8am-9am","hours_friday":"8am-9am","hours_saturday":"8am-9am","hours_sunday":"Closed","available_clothing":"Clothing","available_computer_access":"","available_day_room":"","available_dental_services":"","available_food_pantry":"","available_housing_assistance":"","available_meals":"Meals","available_medical_services":"","available_personal_care_items":"","available_showers":"","available_shelter":"","available_transportation_assistance":"","cartodb_id":36,"created_at":"2014-04-10T22:54:26Z","updated_at":"2014-04-10T22:54:26Z"}},{"type":"Feature","geometry":{"type":"Point","coordinates":[-111.917122,40.759609]},"properties":{"image":"http://pu.bli.sh/maps/images_popups/49184_ES_13934.png","type":"F","label":"Salvation Army Pantry","address":"438 South 900 West","state":"UT","zip":"84104","phone":"801-322-1253","website":"","hours_monday":"1-6pm","hours_tuesday":"Closed","hours_wednesday":"9-11:30am;1-5pm","hours_thursday":"Closed","hours_friday":"9-11:30am;1-5pm","hours_saturday":"Closed","hours_sunday":"Closed","available_clothing":"","available_computer_access":"","available_day_room":"","available_dental_services":"","available_food_pantry":"Food / Pantry","available_housing_assistance":"","available_meals":"","available_medical_services":"","available_personal_care_items":"","available_showers":"","available_shelter":"","available_transportation_assistance":"","cartodb_id":37,"created_at":"2014-04-10T22:54:26Z","updated_at":"2014-04-10T22:54:26Z"}},{"type":"Feature","geometry":{"type":"Point","coordinates":[-111.865028,40.763458]},"properties":{"image":"http://pu.bli.sh/maps/images_popups/49339_ES_14208.png","type":"F","label":"St Paul's Episcopal Church","address":"261 South 900 East","state":"UT","zip":"84102","phone":"","website":"","hours_monday":"Closed","hours_tuesday":"Closed","hours_wednesday":"Closed","hours_thursday":"Closed","hours_friday":"Closed","hours_saturday":"9am-1pm","hours_sunday":"Closed","available_clothing":"","available_computer_access":"","available_day_room":"","available_dental_services":"","available_food_pantry":"Food / Pantry","available_housing_assistance":"","available_meals":"","available_medical_services":"","available_personal_care_items":"","available_showers":"","available_shelter":"","available_transportation_assistance":"","cartodb_id":38,"created_at":"2014-04-10T22:54:26Z","updated_at":"2014-04-10T22:54:26Z"}},{"type":"Feature","geometry":{"type":"Point","coordinates":[-111.919258,40.734348]},"properties":{"image":"http://pu.bli.sh/maps/images_popups/49775_ES_14924.png","type":"F","label":"Utah Dream Center","address":"1624 South 1000 West","state":"UT","zip":"84104","phone":"801-254-4945","website":"","hours_monday":"Closed","hours_tuesday":"12-3pm","hours_wednesday":"Closed","hours_thursday":"Closed","hours_friday":"Closed","hours_saturday":"Closed","hours_sunday":"Closed","available_clothing":"","available_computer_access":"","available_day_room":"","available_dental_services":"","available_food_pantry":"Food / Pantry","available_housing_assistance":"","available_meals":"","available_medical_services":"Medical Services","available_personal_care_items":"","available_showers":"","available_shelter":"","available_transportation_assistance":"","cartodb_id":39,"created_at":"2014-04-10T22:54:26Z","updated_at":"2014-04-10T22:54:26Z"}},{"type":"Feature","geometry":{"type":"Point","coordinates":[-111.90358,40.764511]},"properties":{"image":"http://pu.bli.sh/maps/images_popups/49424_ES_14324.png","type":"F","label":"St. Vincent de Paul Center Soup Kitchen","address":"437 West 200 South","state":"UT","zip":"84101","phone":"801-363-7710","website":"","hours_monday":"11:30a & 5p","hours_tuesday":"11:30a & 5p","hours_wednesday":"11:30a & 5p","hours_thursday":"11:30a & 5p","hours_friday":"11:30a & 5p","hours_saturday":"10a & 5p","hours_sunday":"5p","available_clothing":"","available_computer_access":"","available_day_room":"","available_dental_services":"","available_food_pantry":"","available_housing_assistance":"","available_meals":"Meals","available_medical_services":"","available_personal_care_items":"","available_showers":"","available_shelter":"","available_transportation_assistance":"","cartodb_id":40,"created_at":"2014-04-10T22:54:26Z","updated_at":"2014-04-10T22:54:26Z"}},{"type":"Feature","geometry":{"type":"Point","coordinates":[-111.887909,40.754799]},"properties":{"image":"http://pu.bli.sh/maps/images_popups/47060_ES_10407.png","type":"H","label":"Homeless Youth Resource Center","address":"655 S. State Street","state":"UT","zip":"84111","phone":"801-364-0744","website":"","hours_monday":"24 hours","hours_tuesday":"24 hours","hours_wednesday":"24 hours","hours_thursday":"24 hours","hours_friday":"24 hours","hours_saturday":"24 hours","hours_sunday":"24 hours","available_clothing":"","available_computer_access":"Computer Access","available_day_room":"","available_dental_services":"","available_food_pantry":"","available_housing_assistance":"","available_meals":"Meals","available_medical_services":"","available_personal_care_items":"Personal Care Items","available_showers":"Showers","available_shelter":"Shelter","available_transportation_assistance":"","cartodb_id":44,"created_at":"2014-04-10T22:54:26Z","updated_at":"2014-04-10T22:54:26Z"}},{"type":"Feature","geometry":{"type":"Point","coordinates":[-111.904251,40.764469]},"properties":{"image":"http://pu.bli.sh/maps/images_popups/47520_ES_11147.png","type":"H","label":"Mens Shelter","address":"210 S. Rio Grande St.","state":"UT","zip":"84101","phone":"801-359-1739","website":"","hours_monday":"10am-7am","hours_tuesday":"10am-7am","hours_wednesday":"10am-7am","hours_thursday":"10am-7am","hours_friday":"10am-7am","hours_saturday":"10am-7am","hours_sunday":"10am-7am","available_clothing":"","available_computer_access":"","available_day_room":"","available_dental_services":"","available_food_pantry":"","available_housing_assistance":"","available_meals":"","available_medical_services":"","available_personal_care_items":"","available_showers":"","available_shelter":"Shelter","available_transportation_assistance":"","cartodb_id":45,"created_at":"2014-04-10T22:54:26Z","updated_at":"2014-04-10T22:54:26Z"}},{"type":"Feature","geometry":{"type":"Point","coordinates":[-111.902222,40.75901]},"properties":{"image":"http://pu.bli.sh/maps/images_popups/47816_ES_11645.png","type":"H","label":"Rescue Mission","address":"463 South 400 West","state":"UT","zip":"84101","phone":"801-355-1302","website":"rescuesaltlake.org","hours_monday":"9-11am_2-4pm","hours_tuesday":"9-11am_2-4pm","hours_wednesday":"9-11am_2-4pm","hours_thursday":"9-11am_2-4pm","hours_friday":"9-10:45am_2-4pm","hours_saturday":"2-4pm","hours_sunday":"2-4pm","available_clothing":"Clothing","available_computer_access":"","available_day_room":"","available_dental_services":"","available_food_pantry":"Food / Pantry","available_housing_assistance":"","available_meals":"Meals","available_medical_services":"","available_personal_care_items":"Personal Care Items","available_showers":"Showers","available_shelter":"Shelter","available_transportation_assistance":"","cartodb_id":46,"created_at":"2014-04-10T22:54:26Z","updated_at":"2014-04-10T22:54:26Z"}},{"type":"Feature","geometry":{"type":"Point","coordinates":[-111.887932,40.743511]},"properties":{"image":"","type":"H","label":"Rescue Mission:Rescue Haven","address":"1165 S. State St.","state":"UT","zip":"84111","phone":"801-521-5925 ","website":"","hours_monday":"Call","hours_tuesday":"Call","hours_wednesday":"Call","hours_thursday":"Call","hours_friday":"Call","hours_saturday":"Call","hours_sunday":"Call","available_clothing":"","available_computer_access":"Computer Access","available_day_room":"","available_dental_services":"","available_food_pantry":"","available_housing_assistance":"","available_meals":"Meals","available_medical_services":"","available_personal_care_items":"Personal Care Items","available_showers":"Showers","available_shelter":"Shelter","available_transportation_assistance":"","cartodb_id":47,"created_at":"2014-04-10T22:54:26Z","updated_at":"2014-04-10T22:54:26Z"}},{"type":"Feature","geometry":{"type":"Point","coordinates":[-111.896042,40.691799]},"properties":{"image":"http://pu.bli.sh/maps/images_popups/48970_ES_13600.png","type":"H","label":"Salt Lake County Youth Services ","address":"177 W. Price Ave. ","state":"UT","zip":"84115","phone":"385-468-4500","website":"youth.slco.org","hours_monday":"24 hours","hours_tuesday":"24 hours","hours_wednesday":"24 hours","hours_thursday":"24 hours","hours_friday":"24 hours","hours_saturday":"24 hours","hours_sunday":"24 hours","available_clothing":"","available_computer_access":"Computer Access","available_day_room":"","available_dental_services":"","available_food_pantry":"","available_housing_assistance":"","available_meals":"Meals","available_medical_services":"","available_personal_care_items":"Personal Care Items","available_showers":"Showers","available_shelter":"Shelter","available_transportation_assistance":"","cartodb_id":48,"created_at":"2014-04-10T22:54:26Z","updated_at":"2014-04-10T22:54:26Z"}},{"type":"Feature","geometry":{"type":"Point","coordinates":[-111.884781,40.767818]},"properties":{"image":"http://pu.bli.sh/maps/images_popups/Services_Hildegarde.jpg","type":"F","label":"Hildegardes Food Pantry","address":"231 East 100 South","state":"UT","zip":"84111","phone":"801-328-2303","website":"","hours_monday":"","hours_tuesday":"","hours_wednesday":"","hours_thursday":"","hours_friday":"","hours_saturday":"","hours_sunday":"","available_clothing":"","available_computer_access":"","available_day_room":"","available_dental_services":"","available_food_pantry":"Food / Pantry","available_housing_assistance":"","available_meals":"","available_medical_services":"","available_personal_care_items":"","available_showers":"","available_shelter":"","available_transportation_assistance":"","cartodb_id":41,"created_at":"2014-04-10T22:54:26Z","updated_at":"2014-06-08T00:59:59Z"}},{"type":"Feature","geometry":{"type":"Point","coordinates":[-111.904251,40.764469]},"properties":{"image":"http://pu.bli.sh/maps/images_popups/47520_ES_11147.png","type":"H","label":"The Road Home","address":"210 S. Rio Grande St.","state":"UT","zip":"84101","phone":"801-328-8996","website":"","hours_monday":"10am-7am","hours_tuesday":"10am-7am","hours_wednesday":"10am-7am","hours_thursday":"10am-7am","hours_friday":"10am-7am","hours_saturday":"10am-7am","hours_sunday":"10am-7am","available_clothing":"","available_computer_access":"","available_day_room":"","available_dental_services":"","available_food_pantry":"","available_housing_assistance":"","available_meals":"","available_medical_services":"","available_personal_care_items":"","available_showers":"Showers","available_shelter":"Shelter","available_transportation_assistance":"","cartodb_id":49,"created_at":"2014-04-10T22:54:26Z","updated_at":"2014-04-10T22:54:26Z"}},{"type":"Feature","geometry":{"type":"Point","coordinates":[-111.882263,40.762695]},"properties":{"image":"http://pu.bli.sh/maps/images_popups/49892_ES_15119.png","type":"H","label":"YWCA","address":"322 East 300 South","state":"UT","zip":"84111","phone":"801-537-8600","website":"","hours_monday":"Call","hours_tuesday":"Call","hours_wednesday":"Call","hours_thursday":"Call","hours_friday":"Call","hours_saturday":"Call","hours_sunday":"Call","available_clothing":"Clothing","available_computer_access":"Computer Access","available_day_room":"","available_dental_services":"","available_food_pantry":"","available_housing_assistance":"Housing Assistance","available_meals":"Meals","available_medical_services":"","available_personal_care_items":"Personal Care Items","available_showers":"Showers","available_shelter":"Shelter","available_transportation_assistance":"","cartodb_id":50,"created_at":"2014-04-10T22:54:26Z","updated_at":"2014-04-10T22:54:26Z"}},{"type":"Feature","geometry":{"type":"Point","coordinates":[-111.906479,40.764141]},"properties":{"image":"http://pu.bli.sh/maps/images_popups/Services_HousingCoalition.jpg","type":"H","label":"Utah Housing Coalition","address":"230 S. 500 W.","state":"UT","zip":"84101","phone":"801-364-0077","website":"","hours_monday":"","hours_tuesday":"","hours_wednesday":"","hours_thursday":"","hours_friday":"","hours_saturday":"","hours_sunday":"","available_clothing":"","available_computer_access":"","available_day_room":"","available_dental_services":"","available_food_pantry":"","available_housing_assistance":"Housing Assistance","available_meals":"","available_medical_services":"","available_personal_care_items":"","available_showers":"","available_shelter":"","available_transportation_assistance":"","cartodb_id":51,"created_at":"2014-04-10T22:54:26Z","updated_at":"2014-04-10T22:54:26Z"}},{"type":"Feature","geometry":{"type":"Point","coordinates":[-111.914612,40.752159]},"properties":{"image":"http://pu.bli.sh/maps/images_popups/Services_FamilyPromise.jpg","type":"H","label":"Family Promise-Salt Lake","address":"814 West 800 South","state":"UT","zip":"84104","phone":"801-961-8622","website":"fpsl.org","hours_monday":"","hours_tuesday":"","hours_wednesday":"","hours_thursday":"","hours_friday":"","hours_saturday":"","hours_sunday":"","available_clothing":"Clothing","available_computer_access":"Computer Access","available_day_room":"Day Room","available_dental_services":"","available_food_pantry":"","available_housing_assistance":"Housing Assistance","available_meals":"Meals","available_medical_services":"","available_personal_care_items":"","available_showers":"Showers","available_shelter":"","available_transportation_assistance":"Transportation Assistance","cartodb_id":52,"created_at":"2014-04-10T22:54:26Z","updated_at":"2014-04-10T22:54:26Z"}},{"type":"Feature","geometry":{"type":"Point","coordinates":[-111.889702,40.747799]},"properties":{"image":"http://pu.bli.sh/maps/images_popups/Services_Palmer.jpg","type":"H","label":"Palmer Court","address":"999 South Main Street","state":"UT","zip":"84111","phone":"801-505-7777","website":"","hours_monday":"","hours_tuesday":"","hours_wednesday":"","hours_thursday":"","hours_friday":"","hours_saturday":"","hours_sunday":"","available_clothing":"","available_computer_access":"","available_day_room":"","available_dental_services":"","available_food_pantry":"","available_housing_assistance":"","available_meals":"","available_medical_services":"","available_personal_care_items":"","available_showers":"","available_shelter":"","available_transportation_assistance":"","cartodb_id":53,"created_at":"2014-04-10T22:54:26Z","updated_at":"2014-04-10T22:54:26Z"}},{"type":"Feature","geometry":{"type":"Point","coordinates":[-111.878822,40.759159]},"properties":{"image":"http://pu.bli.sh/maps/images_popups/44756_ES_122544.png","type":"M","label":"Central City Community Health Center","address":"461 South 400 East ","state":"UT","zip":"84111","phone":"801-539-8634","website":"chcut.org","hours_monday":"8am-8pm","hours_tuesday":"8am-5pm","hours_wednesday":"8am-5pm","hours_thursday":"8am-5pm","hours_friday":"8am-5pm","hours_saturday":"8am-12pm","hours_sunday":"Closed","available_clothing":"","available_computer_access":"","available_day_room":"","available_dental_services":"Dental Services","available_food_pantry":"","available_housing_assistance":"","available_meals":"","available_medical_services":"Medical Services","available_personal_care_items":"","available_showers":"","available_shelter":"","available_transportation_assistance":"","cartodb_id":54,"created_at":"2014-04-10T22:54:26Z","updated_at":"2014-04-10T22:54:26Z"}},{"type":"Feature","geometry":{"type":"Point","coordinates":[-111.876076,40.882561]},"properties":{"image":"http://pu.bli.sh/maps/images_popups/45420_ES_123651.png","type":"M","label":"Cornerstone Counseling Center","address":"659 S. 200 E.","state":"UT","zip":"84110","phone":"801-355-2845","website":"","hours_monday":"8am-5pm","hours_tuesday":"8am-5pm","hours_wednesday":"8am-5pm","hours_thursday":"8am-5pm","hours_friday":"8am-5pm","hours_saturday":"Closed","hours_sunday":"Closed","available_clothing":"","available_computer_access":"","available_day_room":"","available_dental_services":"","available_food_pantry":"","available_housing_assistance":"Housing Assistance","available_meals":"","available_medical_services":"","available_personal_care_items":"","available_showers":"","available_shelter":"","available_transportation_assistance":"Transportation Assistance","cartodb_id":55,"created_at":"2014-04-10T22:54:26Z","updated_at":"2014-04-10T22:54:26Z"}},{"type":"Feature","geometry":{"type":"Point","coordinates":[-111.903183,40.759998]},"properties":{"image":"http://pu.bli.sh/maps/images_popups/46047_ES_124717.png","type":"M","label":"Fourth Street Clinic","address":"404 S. 400 W.","state":"UT","zip":"84101","phone":"801-364-0058","website":"fourthstreetclinic.org","hours_monday":"8am-7pm","hours_tuesday":"8am-7pm","hours_wednesday":"8am-7pm","hours_thursday":"8am-7pm","hours_friday":"8am-5pm","hours_saturday":"9am-12pm","hours_sunday":"Closed","available_clothing":"","available_computer_access":"","available_day_room":"","available_dental_services":"Dental Services","available_food_pantry":"","available_housing_assistance":"","available_meals":"","available_medical_services":"Medical Services","available_personal_care_items":"","available_showers":"","available_shelter":"","available_transportation_assistance":"Transportation Assistance","cartodb_id":56,"created_at":"2014-04-10T22:54:26Z","updated_at":"2014-04-11T05:57:22Z"}},{"type":"Feature","geometry":{"type":"Point","coordinates":[-111.890518,40.701222]},"properties":{"image":"http://pu.bli.sh/maps/images_popups/46912_ES_10141.png","type":"M","label":"Health Clinics of Utah","address":"3195 S. Main Street","state":"UT","zip":"84115","phone":"801-468-0354","website":"","hours_monday":"8am-5pm","hours_tuesday":"8am-5pm","hours_wednesday":"8am-5pm","hours_thursday":"8am-5pm","hours_friday":"8am-5pm","hours_saturday":"Closed","hours_sunday":"Closed","available_clothing":"","available_computer_access":"","available_day_room":"","available_dental_services":"","available_food_pantry":"","available_housing_assistance":"","available_meals":"","available_medical_services":"Medical Services","available_personal_care_items":"","available_showers":"","available_shelter":"","available_transportation_assistance":"","cartodb_id":57,"created_at":"2014-04-10T22:54:26Z","updated_at":"2014-04-10T22:54:26Z"}},{"type":"Feature","geometry":{"type":"Point","coordinates":[-111.894882,40.741718]},"properties":{"image":"http://pu.bli.sh/maps/images_popups/47236_ES_10701.png","type":"M","label":"Indian Walk in Center of Salt Lake","address":"120 West 1300 South","state":"UT","zip":"84115","phone":"801-486-4877","website":"","hours_monday":"8:30am-4:30pm","hours_tuesday":"8:30am-4:30pm","hours_wednesday":"8:30am-6:30pm","hours_thursday":"8:30am-4:30pm","hours_friday":"8:30am-3pm","hours_saturday":"Closed","hours_sunday":"Closed","available_clothing":"Clothing","available_computer_access":"Computer Access","available_day_room":"","available_dental_services":"","available_food_pantry":"","available_housing_assistance":"","available_meals":"","available_medical_services":"Medical Services","available_personal_care_items":"","available_showers":"","available_shelter":"","available_transportation_assistance":"","cartodb_id":58,"created_at":"2014-04-10T22:54:26Z","updated_at":"2014-04-10T22:54:26Z"}},{"type":"Feature","geometry":{"type":"Point","coordinates":[-111.880554,40.776798]},"properties":{"image":"http://pu.bli.sh/maps/images_popups/47360_ES_10907.png","type":"M","label":"LDS Hospital","address":"8th Avenue And C Street","state":"UT","zip":"84103","phone":"801-408-1100","website":"","hours_monday":"24 hours","hours_tuesday":"24 hours","hours_wednesday":"24 hours","hours_thursday":"24 hours","hours_friday":"24 hours","hours_saturday":"24 hours","hours_sunday":"24 hours","available_clothing":"","available_computer_access":"","available_day_room":"","available_dental_services":"","available_food_pantry":"","available_housing_assistance":"","available_meals":"","available_medical_services":"Medical Services","available_personal_care_items":"","available_showers":"","available_shelter":"","available_transportation_assistance":"","cartodb_id":59,"created_at":"2014-04-10T22:54:26Z","updated_at":"2014-04-10T22:54:26Z"}},{"type":"Feature","geometry":{"type":"Point","coordinates":[-111.836853,40.766342]},"properties":{"image":"http://pu.bli.sh/maps/images_popups/47648_ES_11354.png","type":"M","label":"Primary Childrens Medical Center","address":"100 Mario Capecchi Drive","state":"UT","zip":"84113","phone":"801-662-1000","website":"","hours_monday":"24 hours","hours_tuesday":"24 hours","hours_wednesday":"24 hours","hours_thursday":"24 hours","hours_friday":"24 hours","hours_saturday":"24 hours","hours_sunday":"24 hours","available_clothing":"","available_computer_access":"","available_day_room":"","available_dental_services":"","available_food_pantry":"","available_housing_assistance":"","available_meals":"","available_medical_services":"Medical Services","available_personal_care_items":"","available_showers":"","available_shelter":"","available_transportation_assistance":"","cartodb_id":61,"created_at":"2014-04-10T22:54:26Z","updated_at":"2014-04-10T22:54:26Z"}},{"type":"Feature","geometry":{"type":"Point","coordinates":[-111.830856,40.751343]},"properties":{"image":"http://pu.bli.sh/maps/images_popups/48641_ES_13027.png","type":"M","label":"Salt Lake City VA Medical Center","address":"500 Foothill Drive","state":"UT","zip":"84108","phone":"801-582-1565","website":"","hours_monday":"24 hours","hours_tuesday":"24 hours","hours_wednesday":"24 hours","hours_thursday":"24 hours","hours_friday":"24 hours","hours_saturday":"24 hours","hours_sunday":"24 hours","available_clothing":"","available_computer_access":"","available_day_room":"","available_dental_services":"Dental Services","available_food_pantry":"","available_housing_assistance":"","available_meals":"","available_medical_services":"Medical Services","available_personal_care_items":"","available_showers":"","available_shelter":"","available_transportation_assistance":"","cartodb_id":62,"created_at":"2014-04-10T22:54:26Z","updated_at":"2014-04-10T22:54:26Z"}},{"type":"Feature","geometry":{"type":"Point","coordinates":[-111.86087,40.769226]},"properties":{"image":"http://pu.bli.sh/maps/images_popups/49010_ES_13641.png","type":"M","label":"Salt Lake Regional Medical Center","address":"1050 East South Temple","state":"UT","zip":"84102","phone":"801-350-4111","website":"","hours_monday":"24 hours","hours_tuesday":"24 hours","hours_wednesday":"24 hours","hours_thursday":"24 hours","hours_friday":"24 hours","hours_saturday":"24 hours","hours_sunday":"24 hours","available_clothing":"","available_computer_access":"","available_day_room":"","available_dental_services":"","available_food_pantry":"","available_housing_assistance":"","available_meals":"","available_medical_services":"Medical Services","available_personal_care_items":"","available_showers":"","available_shelter":"","available_transportation_assistance":"","cartodb_id":63,"created_at":"2014-04-10T22:54:26Z","updated_at":"2014-04-10T22:54:26Z"}},{"type":"Feature","geometry":{"type":"Point","coordinates":[-111.856796,40.686924]},"properties":{"image":"http://pu.bli.sh/maps/images_popups/49461_ES_14412.png","type":"M","label":"St. Marks Hospital","address":"1200 East 3900 South","state":"UT","zip":"84124","phone":"801-268-7111","website":"","hours_monday":"24 hours","hours_tuesday":"24 hours","hours_wednesday":"24 hours","hours_thursday":"24 hours","hours_friday":"24 hours","hours_saturday":"24 hours","hours_sunday":"24 hours","available_clothing":"","available_computer_access":"","available_day_room":"","available_dental_services":"","available_food_pantry":"","available_housing_assistance":"","available_meals":"","available_medical_services":"Medical Services","available_personal_care_items":"","available_showers":"","available_shelter":"","available_transportation_assistance":"","cartodb_id":64,"created_at":"2014-04-10T22:54:26Z","updated_at":"2014-04-10T22:54:26Z"}},{"type":"Feature","geometry":{"type":"Point","coordinates":[-111.930656,40.790539]},"properties":{"image":"Services_Ratcliffe.jpg","type":"M","label":"Stephen D. Ratcliffe Community Health Center","address":"1365 West 1000 North","state":"UT","zip":"84116","phone":"801-328-5750","website":"","hours_monday":"8am-8:15pm","hours_tuesday":"8am-8:15pm","hours_wednesday":"8am-5pm","hours_thursday":"8am-8:15pm","hours_friday":"8am-5pm","hours_saturday":"Closed","hours_sunday":"Closed","available_clothing":"","available_computer_access":"","available_day_room":"","available_dental_services":"","available_food_pantry":"","available_housing_assistance":"","available_meals":"","available_medical_services":"Medical Services","available_personal_care_items":"","available_showers":"","available_shelter":"","available_transportation_assistance":"","cartodb_id":65,"created_at":"2014-04-10T22:54:26Z","updated_at":"2014-04-10T22:54:26Z"}},{"type":"Feature","geometry":{"type":"Point","coordinates":[-111.837364,40.772984]},"properties":{"image":"http://pu.bli.sh/maps/images_popups/49732_ES_14843.png","type":"M","label":"University Of Utah Medical Center","address":"50 North Medical Drive","state":"UT","zip":"84112","phone":"801-581-2121","website":"","hours_monday":"24 hours","hours_tuesday":"24 hours","hours_wednesday":"24 hours","hours_thursday":"24 hours","hours_friday":"24 hours","hours_saturday":"24 hours","hours_sunday":"24 hours","available_clothing":"","available_computer_access":"","available_day_room":"","available_dental_services":"","available_food_pantry":"","available_housing_assistance":"","available_meals":"","available_medical_services":"Medical Services","available_personal_care_items":"","available_showers":"","available_shelter":"","available_transportation_assistance":"","cartodb_id":66,"created_at":"2014-04-10T22:54:26Z","updated_at":"2014-04-10T22:54:26Z"}},{"type":"Feature","geometry":{"type":"Point","coordinates":[-111.887917,40.768478]},"properties":{"image":"http://pu.bli.sh/maps/images_popups/Services_DentalDonated.jpg","type":"M","label":"Dental Donated","address":"29 S. State St.","state":"UT","zip":"84111","phone":"801-983-0349","website":"","hours_monday":"","hours_tuesday":"","hours_wednesday":"","hours_thursday":"","hours_friday":"","hours_saturday":"","hours_sunday":"","available_clothing":"","available_computer_access":"","available_day_room":"","available_dental_services":"","available_food_pantry":"","available_housing_assistance":"","available_meals":"","available_medical_services":"","available_personal_care_items":"","available_showers":"","available_shelter":"","available_transportation_assistance":"","cartodb_id":67,"created_at":"2014-04-10T22:54:26Z","updated_at":"2014-04-10T22:54:26Z"}},{"type":"Feature","geometry":{"type":"Point","coordinates":[-111.933273,40.77565]},"properties":{"image":"http://pu.bli.sh/maps/images_popups/Services_FamDentPlan.jpg","type":"M","label":"Family Dental Plan","address":"288 North 1460 West","state":"UT","zip":"84116","phone":"801-538-7017","website":"","hours_monday":"","hours_tuesday":"","hours_wednesday":"","hours_thursday":"","hours_friday":"","hours_saturday":"","hours_sunday":"","available_clothing":"","available_computer_access":"","available_day_room":"","available_dental_services":"","available_food_pantry":"","available_housing_assistance":"","available_meals":"","available_medical_services":"","available_personal_care_items":"","available_showers":"","available_shelter":"","available_transportation_assistance":"","cartodb_id":68,"created_at":"2014-04-10T22:54:26Z","updated_at":"2014-04-10T22:54:26Z"}},{"type":"Feature","geometry":{"type":"Point","coordinates":[-111.850922,40.77742]},"properties":{"image":"http://pu.bli.sh/maps/images_popups/Services_Shriner.jpg","type":"M","label":"Shriners Hospital For Children","address":"356 North Virginia Street","state":"UT","zip":"84103","phone":"801-536-3500","website":"","hours_monday":"","hours_tuesday":"","hours_wednesday":"","hours_thursday":"","hours_friday":"","hours_saturday":"","hours_sunday":"","available_clothing":"","available_computer_access":"","available_day_room":"","available_dental_services":"","available_food_pantry":"","available_housing_assistance":"","available_meals":"","available_medical_services":"Medical Services","available_personal_care_items":"","available_showers":"","available_shelter":"","available_transportation_assistance":"","cartodb_id":69,"created_at":"2014-04-10T22:54:26Z","updated_at":"2014-04-10T22:54:26Z"}},{"type":"Feature","geometry":{"type":"Point","coordinates":[-111.823593,40.757538]},"properties":{"image":"http://pu.bli.sh/maps/images_popups/Services_UNI.jpg","type":"M","label":"University Neuropsychiatric Institute (UNI)","address":"501 Chipeta Way","state":"UT","zip":"84108","phone":"801-583-2500","website":"","hours_monday":"","hours_tuesday":"","hours_wednesday":"","hours_thursday":"","hours_friday":"","hours_saturday":"","hours_sunday":"","available_clothing":"","available_computer_access":"","available_day_room":"","available_dental_services":"","available_food_pantry":"","available_housing_assistance":"","available_meals":"","available_medical_services":"Medical Services","available_personal_care_items":"","available_showers":"","available_shelter":"","available_transportation_assistance":"","cartodb_id":70,"created_at":"2014-04-10T22:54:26Z","updated_at":"2014-04-10T22:54:26Z"}},{"type":"Feature","geometry":{"type":"Point","coordinates":[-111.873657,40.769486]},"properties":{"image":"http://pu.bli.sh/maps/images_popups/Services_HouseofHope.jpg","type":"M","label":"House Of Hope","address":"607 East South Temple","state":"UT","zip":"84102","phone":"801-355-8536","website":"","hours_monday":"","hours_tuesday":"","hours_wednesday":"","hours_thursday":"","hours_friday":"","hours_saturday":"","hours_sunday":"","available_clothing":"","available_computer_access":"","available_day_room":"","available_dental_services":"","available_food_pantry":"","available_housing_assistance":"","available_meals":"","available_medical_services":"","available_personal_care_items":"","available_showers":"","available_shelter":"","available_transportation_assistance":"","cartodb_id":71,"created_at":"2014-04-10T22:54:26Z","updated_at":"2014-04-10T22:54:26Z"}},{"type":"Feature","geometry":{"type":"Point","coordinates":[-111.890923,40.747112]},"properties":{"image":"","type":"M","label":"Pathways to Recovery","address":"1020 S. Main St.","state":"UT","zip":"84111","phone":"801-536-6500","website":"","hours_monday":"","hours_tuesday":"","hours_wednesday":"","hours_thursday":"","hours_friday":"","hours_saturday":"","hours_sunday":"","available_clothing":"","available_computer_access":"","available_day_room":"","available_dental_services":"","available_food_pantry":"","available_housing_assistance":"","available_meals":"","available_medical_services":"","available_personal_care_items":"","available_showers":"","available_shelter":"","available_transportation_assistance":"","cartodb_id":72,"created_at":"2014-04-10T22:54:26Z","updated_at":"2014-04-10T22:54:26Z"}},{"type":"Feature","geometry":{"type":"Point","coordinates":[-111.916733,40.739609]},"properties":{"image":"http://pu.bli.sh/maps/images_popups/Services_DonatedDental.jpg","type":"M","label":"Donated Dental","address":"1383 S 900 W","state":"UT","zip":"84104","phone":"801-983-0345","website":"donateddental.org","hours_monday":"","hours_tuesday":"","hours_wednesday":"","hours_thursday":"","hours_friday":"","hours_saturday":"","hours_sunday":"","available_clothing":"Clothing","available_computer_access":"","available_day_room":"","available_dental_services":"Dental Services","available_food_pantry":"","available_housing_assistance":"Housing Assistance","available_meals":"Meals","available_medical_services":"","available_personal_care_items":"Personal Care Items","available_showers":"","available_shelter":"Shelter","available_transportation_assistance":"","cartodb_id":73,"created_at":"2014-04-10T22:54:26Z","updated_at":"2014-04-10T22:54:26Z"}},{"type":"Feature","geometry":{"type":"Point","coordinates":[-111.92672,40.740292]},"properties":{"image":"http://pu.bli.sh/maps/images_popups/Services_Reach.jpg","type":"F","label":"Reach Salt Lake","address":"1235 West California Ave","state":"UT","zip":"84104","phone":"801-972-5708","website":"","hours_monday":"","hours_tuesday":"","hours_wednesday":"","hours_thursday":"","hours_friday":"","hours_saturday":"","hours_sunday":"","available_clothing":"","available_computer_access":"","available_day_room":"","available_dental_services":"","available_food_pantry":"Food / Pantry","available_housing_assistance":"","available_meals":"","available_medical_services":"","available_personal_care_items":"","available_showers":"","available_shelter":"","available_transportation_assistance":"","cartodb_id":43,"created_at":"2014-04-10T22:54:26Z","updated_at":"2014-04-11T06:20:20Z"}},{"type":"Feature","geometry":{"type":"Point","coordinates":[-111.92672,40.740292]},"properties":{"image":"http://pu.bli.sh/maps/images_popups/Services_SLCOYouth.jpg","type":"B","label":"Salt Lake County Youth Force","address":"2001 S. State St.","state":"UT","zip":"84190","phone":"801-468-3604","website":"","hours_monday":"","hours_tuesday":"","hours_wednesday":"","hours_thursday":"","hours_friday":"","hours_saturday":"","hours_sunday":"","available_clothing":"","available_computer_access":"","available_day_room":"","available_dental_services":"","available_food_pantry":"","available_housing_assistance":"","available_meals":"","available_medical_services":"","available_personal_care_items":"","available_showers":"","available_shelter":"","available_transportation_assistance":"","cartodb_id":24,"created_at":"2014-04-10T22:54:26Z","updated_at":"2014-04-11T00:39:42Z"}},{"type":"Feature","geometry":{"type":"Point","coordinates":[-111.90358,40.764511]},"properties":{"image":"http://pu.bli.sh/maps/images_popups/Services_CCSSL.jpg","type":"B","label":"CCS Salt Lake","address":"437 W. 200 S.","state":"UT","zip":"84101","phone":"801-363-7710","website":"","hours_monday":"","hours_tuesday":"","hours_wednesday":"","hours_thursday":"","hours_friday":"","hours_saturday":"","hours_sunday":"","available_clothing":"","available_computer_access":"","available_day_room":"","available_dental_services":"","available_food_pantry":"","available_housing_assistance":"","available_meals":"Meals","available_medical_services":"","available_personal_care_items":"","available_showers":"","available_shelter":"","available_transportation_assistance":"","cartodb_id":18,"created_at":"2014-04-10T22:54:26Z","updated_at":"2014-06-13T17:08:25Z"}},{"type":"Feature","geometry":{"type":"Point","coordinates":[-111.797714,40.706547]},"properties":{"image":"http://pu.bli.sh/maps/images_popups/48245_ES_12348.png","type":"B","label":"S.L. County-E. Milcreek Branch","address":"2266 E 3435 S","state":"UT","zip":"84109","phone":"801-944-7622","website":"slco.lib.ut.us","hours_monday":"-","hours_tuesday":"-","hours_wednesday":"-","hours_thursday":"-","hours_friday":"-","hours_saturday":"-","hours_sunday":"-","available_clothing":"","available_computer_access":"","available_day_room":"","available_dental_services":"","available_food_pantry":"","available_housing_assistance":"","available_meals":"","available_medical_services":"","available_personal_care_items":"","available_showers":"","available_shelter":"","available_transportation_assistance":"","cartodb_id":8,"created_at":"2014-04-10T22:54:26Z","updated_at":"2016-07-12T12:34:48Z"}},{"type":"Feature","geometry":{"type":"Point","coordinates":[-111.990868,40.698238]},"properties":{"image":"","type":"M","label":"Jordan Valley Medical Center West Valley Campus","address":"3460 South Pioneer Parkway","state":"UT","zip":"84120","phone":"801-964-3100","website":"http://www.jordanvalleywest.com/","hours_monday":"-","hours_tuesday":"-","hours_wednesday":"-","hours_thursday":"-","hours_friday":"-","hours_saturday":"-","hours_sunday":"-","available_clothing":"","available_computer_access":"","available_day_room":"","available_dental_services":"","available_food_pantry":"","available_housing_assistance":"","available_meals":"","available_medical_services":"Medical Services","available_personal_care_items":"","available_showers":"","available_shelter":"","available_transportation_assistance":"","cartodb_id":60,"created_at":"2014-04-10T22:54:26Z","updated_at":"2017-01-24T21:56:21Z"}}]}